[
  {
    "id": 1,
    "name": "Shaheen Dental Care",
    "speciality": "Gum Treatment",
    "rating": 5,
    "treatmentTypes": ["Pediatric Dentistry", "Gum Treatment"],
    "priceLevel": "₹₹",
    "lat": 25.6100,
    "lng": 85.1400,
    "address": "Patna, Bihar",
    "phone": "+91-612-0000001",
    "img": "https://picsum.photos/200",
    "description": "Best Clinic in Patna."
  },
  {
    "id": 2,
    "name": "Spice Dental",
    "speciality": "Braces",
    "rating": 4.0,
    "treatmentTypes": ["Veneers / Smile Design", "Braces"],
    "priceLevel": "₹₹₹",
    "lat": 25.6150,
    "lng": 85.1450,
    "address": "Dak Bungalow Road, Patna",
    "phone": "+91-612-0000002",
    "img": "https://picsum.photos/200",
    "description": "Best Clinic in Patna."
  },
  {
    "id": 3,
    "name": "Taco Dental",
    "speciality": "Dentures",
    "rating": 4.7,
    "treatmentTypes": ["Dentures", "Dental Implants"],
    "priceLevel": "₹₹",
    "lat": 25.6030,
    "lng": 85.1300,
    "address": "Kankarbagh, Patna",
    "phone": "+91-612-0000003",
    "img": "https://picsum.photos/200",
    "description": "Best Clinic in Patna."
  },
  {
    "id": 4,
    "name": "Dosa Dental",
    "speciality": "Root Canal Treatment",
    "rating": 4.3,
    "treatmentTypes": ["Full Mouth Rehabilitation", "Wisdom Tooth Removal", "Root Canal Treatment"],
    "priceLevel": "₹",
    "lat": 25.6000,
    "lng": 85.1380,
    "address": "Rajendra Nagar, Patna",
    "phone": "+91-612-0000004",
    "img": "https://picsum.photos/200",
    "description": "Best Clinic in Patna."
  },
  {
    "id": 5,
    "name": "Dental Zone",
    "speciality": "Tooth Filling",
    "rating": 4.1,
    "treatmentTypes": ["Clear Aligners", "Crown & Bridge", "Tooth Filling"],
    "priceLevel": "₹₹",
    "lat": 25.6115,
    "lng": 85.1250,
    "address": "Boring Road, Patna",
    "phone": "+91-612-0000005",
    "img": "https://picsum.photos/200",
    "description": "Best Clinic in Patna."
  },
  {
    "id": 6,
    "name": "The Sweet Tooth",
    "speciality": "Dental Check-up",
    "rating": 4.6,
    "treatmentTypes": ["Wisdom Tooth Removal", "Dental Check-up"],
    "priceLevel": "₹",
    "lat": 25.6170,
    "lng": 85.1350,
    "address": "Kumhrar, Patna",
    "phone": "+91-612-0000006",
    "img": "https://picsum.photos/200",
    "description": "Best Clinic in Patna."
  }
]