[
  {
    "id": 1,
    "name": "Shaheen Dental Care",
    "speciality": "Gum Treatment",
    "rating": 5,
    "treatmentTypes": ["Pediatric Dentistry", "Gum Treatment"],
    "priceLevel": "₹₹",
    "lat": 25.6100,
    "lng": 85.1400,
    "address": "Patna, Bihar",
    "phone": "",
    "img": "https://picsum.photos/200",
    "description": "Best Clinic in Patna."
  },
  {
    "id": 2,
    "name": "City Dental Care",
    "speciality": "Braces",
    "rating": 4.0,
    "treatmentTypes": ["Veneers / Smile Design", "Braces"],
    "priceLevel": "₹₹₹",
    "lat": 25.6150,
    "lng": 85.1450,
    "address": "K E Inter College,Kashipur,Samastipur",
    "phone": "",
    "img": "https://picsum.photos/200",
    "description": "Best Clinic in Samastipur."
  },
  {
    "id": 3,
    "name": "S M dental clinic and braces",
    "speciality": "Dentures",
    "rating": 4.7,
    "treatmentTypes": ["Dentures", "Dental Implants"],
    "priceLevel": "₹₹",
    "lat": 25.6030,
    "lng": 85.1300,
    "address": "Opposite bhawani ultrasound Banaras bank chowk Chandwara Muzaffarpur 842001",
    "phone": "",
    "img": "https://picsum.photos/200",
    "description": "Best Clinic in Muzaffarpur."
  },
  {
    "id": 4,
    "name": "1 Stop Dental and Aesthetic Clinic",
    "speciality": "Root Canal Treatment",
    "rating": 4.3,
    "treatmentTypes": ["Full Mouth Rehabilitation", "Wisdom Tooth Removal", "Root Canal Treatment"],
    "priceLevel": "₹",
    "lat": 25.6000,
    "lng": 85.1380,
    "address": "Near Phulwari Block Main Gate, Main Road, Phulwarisharif, Patna-801505",
    "phone": "",
    "img": "https://picsum.photos/200",
    "description": "Best Clinic in Phulwarisharif."
  },
  {
    "id": 5,
    "name": "National Dental Hospital",
    "speciality": "Tooth Filling",
    "rating": 4.1,
    "treatmentTypes": ["Clear Aligners", "Crown & Bridge", "Tooth Filling"],
    "priceLevel": "₹₹",
    "lat": 25.6115,
    "lng": 85.1250,
    "address": "Abdi Complex, Naka No 5,Darbhanga 846004",
    "phone": "",
    "img": "https://picsum.photos/200",
    "description": "Best Clinic in Darbhanga."
  }
]